# Time (s),Altitude (m),Vertical velocity (m/s),Vertical acceleration (m/s²),Total velocity (m/s),Total acceleration (m/s²),Position East of launch (m),Position North of launch (m),Lateral distance (m),Lateral direction (°),Lateral velocity (m/s),Lateral acceleration (m/s²),Latitude (°),Longitude (°),Gravitational acceleration (m/s²),Angle of attack (°),Roll rate (°/s),Pitch rate (°/s),Yaw rate (°/s),Mass (g),Propellant mass (g),Longitudinal moment of inertia (kg·m²),Rotational moment of inertia (kg·m²),CP location (cm),CG location (cm),Stability margin calibers (​),Mach number (​),Reynolds number (​),Thrust (N),Drag force (N),Drag coefficient (​),Axial drag coefficient (​),Friction drag coefficient (​),Pressure drag coefficient (​),Base drag coefficient (​),Normal force coefficient (​),Pitch moment coefficient (​),Yaw moment coefficient (​),Side force coefficient (​),Roll moment coefficient (​),Roll forcing coefficient (​),Roll damping coefficient (​),Pitch damping coefficient (​),Coriolis acceleration (m/s²),Reference length (cm),Reference area (cm²),Vertical orientation (zenith) (°),Lateral orientation (azimuth) (°),Wind velocity (m/s),Air temperature (°C),Air pressure (mbar),Speed of sound (m/s),Simulation time step (s),Computation time (s)
# Event LAUNCH occurred at t=0 seconds
# Event IGNITION occurred at t=0 seconds
0,0,0,-1.5745,0,1.5745,0,0,0,0,0,0,28.61,-80.6,9.7922,90,0,0,0,18475,4814.3,12.911,0.052158,NaN,181.4,NaN,0.0065919,429219,151.82,0,0.57955,0,0.39616,0.063382,0.12001,NaN,NaN,NaN,NaN,NaN,NaN,NaN,NaN,0,15.776,195.47,90,0,NaN,15,1013.2,340.39,0.01,0.003177
0.01,0,0,14.861,0,14.861,0,0,0,0,0,0,28.61,-80.6,9.7922,90,0,0,0,18475,4814.3,12.911,0.052158,NaN,181.4,NaN,0.0065338,425433,455.47,0,0.58031,0,0.39692,0.063382,0.12001,NaN,NaN,NaN,NaN,NaN,NaN,NaN,NaN,0,15.776,195.47,90,0,NaN,15,1013.2,340.39,0.01,0.0037414
0.02,7.4328e-4,0.14867,31.308,0.14867,31.308,0,0,0,0,0,0,28.61,-80.6,9.7922,86.141,0,0,0,18470,4809,12.908,0.052152,NaN,181.38,NaN,0.0064903,422605,759.12,2.5033e-5,0.58088,4.2838e-4,0.39749,0.063382,0.12001,NaN,NaN,NaN,NaN,NaN,NaN,NaN,NaN,1.9035e-5,15.776,195.47,90,0,NaN,15,1013.2,340.39,0.01,0.0046848
0.03,0.0037958,0.46185,47.765,0.46185,47.765,0,0,0,0,0,0,28.61,-80.6,9.7922,78.062,0,0,0,18465,4803.7,12.906,0.052145,NaN,181.36,NaN,0.0065593,427097,1062.8,6.9067e-4,0.57997,0.011572,0.39658,0.063382,0.12001,NaN,NaN,NaN,NaN,NaN,NaN,NaN,NaN,5.9133e-5,15.776,195.47,90,0,NaN,15,1013.2,340.39,0.01,0.0049126
0.04,0.010803,0.93963,64.231,0.93963,64.231,0,0,0,0,0,0,28.61,-80.6,9.7922,66.535,0,0,0,18459,4798.3,12.903,0.052139,NaN,181.34,NaN,0.0069326,451402,1366.4,0.0050267,0.57526,0.075396,0.39187,0.063382,0.12001,NaN,NaN,NaN,NaN,NaN,NaN,NaN,NaN,1.2031e-4,15.776,195.47,90,0,NaN,15,1013.2,340.39,0.01,0.0051104
# Event LIFTOFF occurred at t=0.05 seconds
0.05,0.023412,1.5821,80.62,1.5821,80.62,0,0,0,0,0,0,28.61,-80.6,9.7922,53.586,0,0,0,18454,4793,12.9,0.052133,NaN,181.32,NaN,0.00783,509831,1668.5,0.019417,0.56519,0.22831,0.3818,0.063383,0.12001,NaN,NaN,NaN,NaN,NaN,NaN,NaN,NaN,2.0257e-4,15.776,195.47,90,0,NaN,15,1013.2,340.39,0.01,0.0053682
0.06,0.043265,2.3885,86.862,2.3885,86.862,0,0,0,0,0,0,28.61,-80.6,9.7922,42.346,0,0,0,18448,4787.4,12.898,0.052126,NaN,181.3,NaN,0.0094943,618196,1783.2,0.050778,0.55002,0.40608,0.36662,0.063383,0.12001,NaN,NaN,NaN,NaN,NaN,NaN,NaN,NaN,3.0582e-4,15.776,195.47,90,0,NaN,15,1013.2,340.39,0.01,0.0055638
0.07,0.071494,3.2575,86.145,3.2575,86.145,0,0,0,0,0,0,28.61,-80.6,9.7922,34.143,0,0,0,18440,4779.5,12.894,0.052116,NaN,181.27,NaN,0.011563,752885,1769.2,0.098576,0.53542,0.5315,0.35202,0.063384,0.12002,NaN,NaN,NaN,NaN,NaN,NaN,NaN,NaN,4.1707e-4,15.776,195.47,90,0,NaN,15,1013.2,340.39,0.01,0.0057556
0.08,0.10838,4.1194,85.438,4.1194,85.438,0,0,0,0,0,0,28.61,-80.6,9.7922,28.548,0,0,0,18430,4769.4,12.889,0.052104,NaN,181.24,NaN,0.013777,897051,1755.3,0.15752,0.52317,0.59826,0.33976,0.063385,0.12002,NaN,NaN,NaN,NaN,NaN,NaN,NaN,NaN,5.2742e-4,15.776,195.47,90,0,NaN,14.999,1013.2,340.39,0.01,0.0059397
0.09,0.15385,4.9742,84.73,4.9742,84.73,0,0,0,0,0,0,28.61,-80.6,9.7922,24.561,0,0,0,18420,4759.3,12.884,0.052092,NaN,181.2,NaN,0.016067,1046145,1741.3,0.22545,0.51294,0.6296,0.32952,0.063387,0.12003,NaN,NaN,NaN,NaN,NaN,NaN,NaN,NaN,6.3686e-4,15.776,195.47,90,0,NaN,14.999,1013.2,340.39,0.01,0.0061416
0.1,0.20782,5.8219,84.02,5.8219,84.02,0,0,0,0,0,0,28.61,-80.6,9.7922,21.602,0,0,0,18410,4749.2,12.879,0.05208,NaN,181.16,NaN,0.018396,1197773,1727.4,0.30102,0.50431,0.64126,0.32088,0.063389,0.12004,NaN,NaN,NaN,NaN,NaN,NaN,NaN,NaN,7.454e-4,15.776,195.47,90,0,NaN,14.999,1013.2,340.39,0.01,0.0063397
0.11,0.27025,6.6625,83.31,6.6625,83.31,0,0,0,0,0,0,28.61,-80.6,9.7922,19.005,0,0,0,18400,4739.1,12.874,0.052068,NaN,181.13,NaN,0.020702,1347912,1713.5,0.38247,0.49706,0.64336,0.31362,0.063391,0.12006,NaN,NaN,NaN,NaN,NaN,NaN,NaN,NaN,8.5303e-4,15.776,195.47,90,0,NaN,14.998,1013.2,340.39,0.01,0.0065311
0.12,0.34104,7.496,82.598,7.496,82.598,0,0,0,0,0,0,28.61,-80.6,9.7922,16.947,0,0,0,18390,4729.1,12.869,0.052056,NaN,181.09,NaN,0.023022,1498961,1699.5,0.46903,0.49076,0.63798,0.30729,0.063393,0.12007,NaN,NaN,NaN,NaN,NaN,NaN,NaN,NaN,9.5975e-4,15.776,195.47,90,0,NaN,14.998,1013.2,340.39,0.01,0.0067152
0.13,0.42013,8.3223,81.886,8.3223,81.886,0,0,0,0,0,0,28.61,-80.6,9.7922,15.281,0,0,0,18380,4719,12.864,0.052044,NaN,181.05,NaN,0.025346,1650271,1685.6,0.55837,0.48521,0.62661,0.30173,0.063395,0.12008,NaN,NaN,NaN,NaN,NaN,NaN,NaN,NaN,0.0010656,15.776,195.47,90,0,NaN,14.997,1013.2,340.39,0.01,0.0069952
0.14,0.50745,9.1416,81.172,9.1416,81.172,0,0,0,0,0,0,28.61,-80.6,9.7922,13.905,0,0,0,18370,4708.9,12.859,0.052032,NaN,181.02,NaN,0.027667,1801417,1671.6,0.6496,0.48029,0.61179,0.29679,0.063398,0.1201,NaN,NaN,NaN,NaN,NaN,NaN,NaN,NaN,0.0011704,15.776,195.47,90,0,NaN,14.997,1013.2,340.39,0.01,0.0075489
0.15,0.60292,9.9537,80.458,9.9537,80.458,0,0,0,0,0,0,28.61,-80.6,9.7922,12.752,0,0,0,18360,4698.8,12.855,0.05202,NaN,180.98,NaN,0.029982,1952104,1657.7,0.7436,0.47589,0.59636,0.29237,0.063401,0.12012,NaN,NaN,NaN,NaN,NaN,NaN,NaN,NaN,0.0012744,15.776,195.47,90,0,NaN,14.996,1013.2,340.39,0.01,0.007775
0.16,0.70649,10.759,79.742,10.759,79.742,0,0,0,0,0,0,28.61,-80.6,9.7922,12.035,0,0,0,18350,4688.7,12.85,0.052007,NaN,180.94,NaN,0.032318,2104160,1644.3,0.84641,0.47187,0.58425,0.28833,0.063404,0.12014,NaN,NaN,NaN,NaN,NaN,NaN,NaN,NaN,0.0013775,15.776,195.47,90,0,NaN,14.995,1013.2,340.39,0.0092948,0.0079572
0.16929,0.80993,11.5,79.105,11.5,79.105,0,0,0,0,0,0,28.61,-80.6,9.7922,11.461,0,0,0,18340,4679,12.845,0.051996,NaN,180.91,NaN,0.034474,2244536,1631.7,0.94619,0.46848,0.57398,0.28491,0.063407,0.12015,NaN,NaN,NaN,NaN,NaN,NaN,NaN,NaN,0.0014725,15.776,195.47,90,0,NaN,14.995,1013.2,340.39,0.0086953,0.0081286
0.17799,0.91293,12.189,78.505,12.189,78.505,0,0,0,0,0,0,28.61,-80.6,9.7922,10.991,0,0,0,18331,4669.9,12.84,0.051985,NaN,180.87,NaN,0.036478,2374984,1619.9,1.045,0.46635,0.56618,0.28277,0.06341,0.12017,NaN,NaN,NaN,NaN,NaN,NaN,NaN,NaN,0.0015606,15.776,195.47,90,0,NaN,14.994,1013.1,340.39,0.0082043,0.008355
# Event LAUNCHROD occurred at t=0.18619 seconds
0.18619,1.0156,12.833,77.935,12.833,77.935,0,0,0,0,0,0.23325,28.61,-80.6,9.7922,10.597,0,0,0,18322,4661.4,12.836,0.051975,181.81,180.84,0.061215,0.038356,2497260,1605.6,1.1462,0.46637,0.56169,0.28277,0.063413,0.12019,2.0796,0.12706,-1.7918e-4,0,0,0,0,0,0.0016431,15.776,195.47,90,0,NaN,14.993,1013.1,340.38,0.012306,0.0087614
0.1985,1.1794,13.791,77.457,13.791,77.458,-1.8098e-5,0,1.8098e-5,-180,0.0029766,0.25049,28.61,-80.6,9.7922,10.067,0,0.0030998,3.0855e-7,18312,4651.1,12.831,0.051962,182.37,180.8,0.098957,0.04115,2679119,1600.4,1.3047,0.4664,0.55549,0.28276,0.063418,0.12022,1.9392,0.19147,-3.8565e-4,0,0,0,0,5.1534e-8,0.0017657,15.776,195.47,90,0,NaN,14.992,1013.1,340.38,0.01846,0.0089922
0.21696,1.4472,15.223,78.063,15.223,78.063,-1.1636e-4,0,1.1636e-4,-180,0.0076977,0.25967,28.61,-80.6,9.7922,8.9672,0,0.01162,7.5046e-6,18296,4635.6,12.824,0.051944,183.6,180.75,0.1809,0.045277,2947752,1611.1,1.5416,0.46644,0.54217,0.28275,0.063425,0.12027,1.6597,0.30052,-1.2927e-4,0,0,0,0,5.9823e-7,0.0019491,15.776,195.47,90,-0.037783,NaN,14.991,1013.1,340.38,0.02769,0.0092036
0.24465,1.8987,17.39,78.971,17.39,78.972,-4.3045e-4,0,4.3045e-4,-180,0.015035,0.2697,28.61,-80.6,9.7922,7.5888,0,0.034328,2.1425e-5,18273,4612.4,12.812,0.051916,185.32,180.66,0.29512,0.05154,3355388,1627.1,1.9352,0.46652,0.52529,0.28273,0.063439,0.12035,1.3323,0.39339,1.1425e-4,0,0,0,0,4.029e-6,0.0022265,15.776,195.47,89.999,-0.039305,NaN,14.988,1013,340.38,0.041534,0.0095946
0.28618,2.6893,20.681,80.333,20.681,80.333,-0.0012953,0,0.0012953,-180,0.026798,0.29722,28.61,-80.6,9.7922,6.3234,0,0.089331,6.8622e-6,18238,4577.6,12.795,0.051874,187.09,180.53,0.4153,0.061131,3979474,1648.3,2.6448,0.46665,0.51035,0.2827,0.063462,0.12049,1.0545,0.43801,-4.4764e-4,0,0,0,0,1.9395e-5,0.0026479,15.776,195.47,89.997,-0.016377,NaN,14.983,1012.9,340.38,0.05,0.010144
0.33618,3.824,24.71,81.884,24.71,81.885,-0.0030229,-1.783e-8,0.0030229,-180,0.04264,0.33702,28.61,-80.6,9.7922,5.3877,0,0.18827,3.6615e-5,18192,4531.5,12.772,0.051819,188.53,180.36,0.51767,0.07292,4746476,1671.5,3.6875,0.46685,0.50013,0.28266,0.063496,0.12069,0.8633,0.44714,-3.4705e-5,0,0,0,0,6.0547e-5,0.0031638,15.776,195.47,89.99,-0.012281,NaN,14.975,1012.8,340.37,0.05,0.010323
0.38618,5.162,28.813,83.347,28.813,83.348,-0.005586,-4.5895e-8,0.005586,-180,0.059956,0.34546,28.61,-80.6,9.7922,4.4681,0,0.32448,7.2743e-5,18142,4481.2,12.747,0.051758,190.08,180.18,0.6277,0.084914,5526503,1694.7,4.9084,0.46708,0.49103,0.2826,0.063537,0.12094,0.68719,0.43148,2.4631e-4,0,0,0,0,1.3263e-4,0.0036891,15.776,195.47,89.977,-0.012883,NaN,14.966,1012.6,340.37,0.05,0.010502
0.43618,6.7071,32.989,84.807,32.99,84.808,-0.0090133,-1.0487e-7,0.0090133,-180,0.077076,0.3374,28.61,-80.6,9.7922,3.7575,0,0.49578,7.8381e-5,18092,4431,12.722,0.051698,191.38,179.99,0.72183,0.097138,6321262,1717.8,6.3418,0.46735,0.48487,0.28254,0.063585,0.12123,0.55917,0.40309,3.9348e-4,0,0,0,0,2.3661e-4,0.0042238,15.776,195.47,89.957,-0.010341,NaN,14.956,1012.5,340.36,0.05,0.010671
0.48618,8.4627,37.239,86.263,37.239,86.264,-0.01328,-2.0774e-7,0.01328,-180,0.093327,0.30451,28.61,-80.6,9.7922,3.1616,0,0.70059,3.3973e-6,18042,4380.7,12.696,0.051638,192.54,179.8,0.80749,0.10959,7130177,1741,7.9954,0.46767,0.48042,0.28247,0.06364,0.12156,0.45728,0.36874,3.6763e-6,0,0,0,0,3.7126e-4,0.0047679,15.776,195.47,89.927,-0.0079461,NaN,14.945,1012.3,340.36,0.05,0.010842
0.53618,10.433,41.56,87.713,41.56,87.714,-0.018309,-3.6862e-7,0.018309,-180,0.10749,0.25877,28.61,-80.6,9.7921,2.7393,0,0.93581,-1.3084e-4,17991,4330.4,12.671,0.051577,193.41,179.61,0.87479,0.12226,7953679,1764.1,9.8956,0.46803,0.4778,0.28239,0.063703,0.12194,0.3881,0.3386,-4.3034e-4,0,0,0,0,5.3218e-4,0.0053212,15.776,195.47,89.886,-0.0034148,NaN,14.932,1012,340.35,0.05,0.011015
0.58618,12.621,45.954,88.977,45.955,88.977,-0.023981,-5.7803e-7,0.023981,-180,0.11871,0.17799,28.61,-80.6,9.7921,2.3469,0,1.2018,-1.1094e-5,17941,4280.1,12.645,0.051517,194.26,179.42,0.94058,0.13516,8790722,1784,12.038,0.46844,0.47574,0.28229,0.063775,0.12237,0.32606,0.30571,1.3094e-4,0,0,0,0,7.1825e-4,0.0058838,15.776,195.47,89.833,-9.3825e-4,NaN,14.918,1011.8,340.34,0.05,0.011187
0.63618,15.03,50.412,89.755,50.412,89.755,-0.030097,-8.2469e-7,0.030097,-180,0.12506,0.070132,28.61,-80.6,9.7921,2.0236,0,1.4915,-1.2681e-6,17889,4228.1,12.619,0.051454,194.98,179.22,0.99933,0.14824,9639859,1795.2,14.437,0.4689,0.4744,0.28219,0.063855,0.12286,0.27658,0.2754,7.9234e-5,0,0,0,0,9.1962e-4,0.0064545,15.776,195.47,89.766,2.7629e-5,NaN,14.902,1011.5,340.33,0.05,0.011381
0.68618,17.663,54.909,90.51,54.909,90.51,-0.036383,-1.0997e-6,0.036383,-180,0.12526,0.071782,28.61,-80.6,9.7921,1.7432,0,1.8035,-8.5468e-5,17835,4173.8,12.591,0.051389,195.64,179.01,1.0541,0.16145,10496273,1805.9,17.087,0.4694,0.47354,0.28207,0.063943,0.12339,0.23485,0.24643,1.6936e-4,0,0,0,0,0.0011337,0.0070303,15.776,195.47,89.684,7.5289e-4,NaN,14.885,1011.2,340.32,0.05,0.011655
0.73618,20.521,59.443,91.258,59.443,91.258,-0.042493,-1.3673e-6,0.042493,-180,0.11783,0.22933,28.61,-80.6,9.7921,1.5589,0,2.1354,-7.8935e-5,17780,4118.7,12.562,0.051323,196.09,178.8,1.0961,0.17478,1.136e7,1816.6,20.008,0.46996,0.4733,0.28194,0.06404,0.12397,0.20804,0.22693,3.6242e-5,0,0,0,0,0.0013564,0.0076108,15.776,195.47,89.585,0.0010073,NaN,14.867,1010.8,340.31,0.05,0.011861
0.78618,23.608,64.015,91.995,64.015,91.997,-0.048016,-1.6239e-6,0.048016,-180,0.10123,0.45678,28.61,-80.6,9.7921,1.3103,0,2.4867,-4.5403e-4,17725,4063.7,12.534,0.051257,196.7,178.58,1.1486,0.18821,1.223e7,1827.3,23.177,0.47056,0.47294,0.28181,0.064146,0.12461,0.17261,0.19716,-2.311e-4,0,0,0,0,0.0015863,0.0081961,15.776,195.47,89.47,0.0017656,NaN,14.847,1010.5,340.3,0.05,0.012033
0.83618,26.924,68.623,92.722,68.623,92.725,-0.052396,-1.8137e-6,0.052396,-180,0.071786,0.7299,28.61,-80.6,9.7921,1.081,0,2.8319,-6.4724e-4,17670,4008.7,12.505,0.051191,197.29,178.37,1.1994,0.20176,13106254,1838,26.617,0.47121,0.47285,0.28166,0.06426,0.12529,0.1407,0.16659,3.4212e-4,0,0,0,0,0.0017903,0.0087861,15.776,195.47,89.337,0.0032352,NaN,14.825,1010.1,340.28,0.05,0.012283
0.88618,30.471,73.267,93.436,73.267,93.442,-0.054941,-1.7835e-6,0.054941,-180,0.027171,1.0774,28.61,-80.6,9.7921,0.81019,0,3.1567,-8.2863e-4,17615,3953.7,12.476,0.051125,198,178.15,1.258,0.21541,13988617,1848.7,30.328,0.47191,0.47285,0.2815,0.064383,0.12603,0.10393,0.12869,-4.3309e-5,0,0,0,0,0.0019517,0.0093807,15.776,195.47,89.187,0.0045613,NaN,14.802,1009.7,340.27,0.05,0.012732
0.93618,34.251,77.946,94.135,77.946,94.147,-0.054794,-1.3892e-6,0.054794,-180,0.036232,1.4693,28.61,-80.6,9.7921,0.56409,0,3.4286,-9.9889e-4,17560,3898.7,12.447,0.051059,198.66,177.93,1.314,0.22917,14877220,1859.4,34.331,0.47267,0.47312,0.28132,0.064516,0.12683,0.071406,0.09155,-4.1111e-4,0,0,0,0,0.0020345,0.0099799,15.776,195.47,89.022,0.0053477,NaN,14.777,1009.2,340.25,0.05,0.013015
0.98618,38.266,82.66,94.821,82.661,94.839,-0.050981,-4.6178e-7,0.050981,-180,0.11951,1.8695,28.61,-80.6,9.7921,0.39226,0,3.6449,-5.0763e-4,17505,3843.7,12.418,0.050993,199.15,177.71,1.3587,0.24304,15772225,1870.1,38.641,0.47347,0.4737,0.28114,0.064658,0.12768,0.049198,0.064927,3.0004e-4,0,0,0,0,0.0020445,0.010583,15.776,195.47,88.845,0.0048487,NaN,14.751,1008.8,340.24,0.05,0.013193
1.0362,42.518,87.409,95.49,87.409,95.519,-0.042483,1.0316e-6,0.042483,180,0.22426,2.3489,28.61,-80.6,9.792,0.16306,0,3.7937,-8.7833e-4,17450,3788.7,12.388,0.050927,199.8,177.49,1.4142,0.25701,16672478,1880.8,43.251,0.47434,0.47438,0.28094,0.064809,0.12859,0.020196,0.026406,1.0696e-4,0,0,0,0,0.0019808,0.011191,15.776,195.47,88.658,0.0034855,NaN,14.724,1008.3,340.22,0.05,0.013368
1.0862,47.008,92.19,96.143,92.19,96.185,-0.028127,3.0353e-6,0.028127,179.99,0.354,2.8468,28.61,-80.6,9.792,0.034256,0,-3.8213,-0.0026545,17395,3733.7,12.359,0.050861,200.19,177.27,1.453,0.27108,17578391,1891.5,48.18,0.47525,0.47526,0.28073,0.064971,0.12955,0.0042134,0.0079485,4.6395e-4,0,0,0,0,-0.0018067,0.011804,15.776,195.47,88.468,0.0015062,NaN,14.694,1007.7,340.2,0.05,0.013541
1.1362,51.738,97.003,96.778,97.004,96.837,-0.0066545,5.286e-6,0.0066545,179.95,0.50919,3.3826,28.61,-80.6,9.792,0.2381,0,-3.7196,-1.6304e-4,17340,3678.7,12.329,0.050795,199.66,177.04,1.4335,0.28524,18489410,1902.2,53.437,0.47623,0.47631,0.28051,0.065142,0.13058,0.029645,0.044135,-3.4264e-4,0,0,0,0,-0.0015461,0.01242,15.776,195.47,88.278,-9.221e-4,NaN,14.664,1007.2,340.19,0.05,0.013717
1.1862,56.709,101.85,97.376,101.85,97.456,0.023266,7.4638e-6,0.023266,0.018381,0.69222,3.9545,28.61,-80.6,9.792,0.45401,0,-3.4446,-1.7051e-4,17285,3623.7,12.299,0.050729,199.11,176.82,1.4129,0.2995,19405177,1912.6,59.032,0.47726,0.47756,0.28027,0.065324,0.13166,0.057252,0.082527,-3.3684e-4,0,0,0,0,-0.0012029,0.01304,15.776,195.47,88.099,-0.0018947,NaN,14.631,1006.6,340.17,0.05,0.013893
1.2362,61.923,106.72,97.807,106.73,97.91,0.063052,9.2633e-6,0.063052,0.0084177,0.90357,4.4966,28.61,-80.6,9.792,0.63245,0,-2.9714,-2.8619e-4,17229,3567.9,12.268,0.050662,198.67,176.59,1.3999,0.31385,20325655,1920.4,64.97,0.47834,0.47892,0.28002,0.065515,0.13281,0.080597,0.1135,2.6863e-4,0,0,0,0,-8.152e-4,0.013665,15.776,195.47,87.937,-0.0024203,NaN,14.597,1006,340.14,0.05,0.014068
1.2862,67.382,111.62,98.204,111.62,98.324,0.11403,1.055e-5,0.11403,0.0053008,1.1384,4.8568,28.61,-80.6,9.792,0.66124,0,-2.3429,-4.8481e-4,17171,3510.4,12.237,0.050593,198.64,176.35,1.4128,0.32829,2.125e7,1927.5,71.216,0.47949,0.48012,0.27976,0.065718,0.13401,0.084452,0.11956,-4.9126e-4,0,0,0,0,-4.6328e-4,0.014292,15.776,195.47,87.804,-0.0033241,NaN,14.562,1005.3,340.12,0.05,0.014287
1.3362,73.086,116.53,98.597,116.54,98.729,0.17713,1.1098e-5,0.17713,0.0035899,1.3874,5.0992,28.61,-80.6,9.792,0.6366,0,-1.6633,-4.4514e-4,17113,3451.8,12.204,0.050522,198.74,176.11,1.435,0.34279,22177899,1934.6,77.783,0.48069,0.48128,0.27949,0.06593,0.13528,0.081244,0.11711,-2.8189e-4,0,0,0,0,-2.1418e-4,0.014922,15.776,195.47,87.704,-0.0041176,NaN,14.525,1004.7,340.1,0.05,0.014476
1.3862,79.036,121.47,98.973,121.48,99.116,0.25297,1.0591e-5,0.25297,0.0023988,1.6479,5.3265,28.61,-80.6,9.7919,0.65118,0,-0.92256,-0.0010938,17054,3393.2,12.171,0.050452,198.75,175.86,1.4509,0.35734,23107228,1941.8,84.693,0.48195,0.48257,0.2792,0.066153,0.1366,0.083225,0.12061,-2.5076e-4,0,0,0,0,-6.0645e-5,0.015554,15.776,195.47,87.639,-0.0051976,NaN,14.486,1004,340.08,0.05,0.014657
1.4362,85.233,126.42,99.339,126.44,99.486,0.34208,8.7083e-6,0.34208,0.0014586,1.917,5.4082,28.61,-80.6,9.7919,0.61277,0,-0.1055,1.5098e-4,16995,3334.6,12.139,0.050382,198.89,175.61,1.4759,0.37195,24039007,1948.9,91.932,0.48327,0.48382,0.2789,0.066386,0.13799,0.078203,0.11513,1.5788e-4,0,0,0,0,-7.3214e-7,0.016189,15.776,195.47,87.613,-0.0056914,NaN,14.446,1003.3,340.05,0.05,0.014837
1.4862,91.678,131.39,99.693,131.41,99.837,0.44468,5.3019e-6,0.44468,6.8314e-4,2.1866,5.3642,28.61,-80.6,9.7919,0.54841,0,0.70906,-4.1565e-4,16937,3276,12.105,0.050312,199.11,175.36,1.5055,0.38662,24972728,1956,99.509,0.48464,0.48509,0.27858,0.06663,0.13943,0.069788,0.1048,4.0629e-4,0,0,0,0,3.0612e-5,0.016826,15.776,195.47,87.628,-0.0055869,NaN,14.404,1002.5,340.03,0.05,0.015005
1.5362,98.373,136.38,100.03,136.4,100.17,0.56066,3.5994e-7,0.56066,3.6783e-5,2.4511,5.2009,28.61,-80.6,9.7919,0.46697,0,1.4961,-0.0010756,16878,3217.5,12.072,0.050241,199.38,175.11,1.5383,0.40133,25908048,1963.2,107.44,0.48608,0.4864,0.27825,0.066885,0.14094,0.059201,0.091432,3.8514e-4,0,0,0,0,1.265e-4,0.017465,15.776,195.47,87.683,-0.0063975,NaN,14.361,1001.7,340,0.05,0.015171
1.5862,105.32,141.39,100.36,141.41,100.48,0.68961,-6.4402e-6,0.68961,-5.3508e-4,2.7043,4.9105,28.61,-80.6,9.7919,0.3657,0,2.2008,-0.0025539,16820,3158.9,12.039,0.050171,199.7,174.86,1.5749,0.4161,26844813,1970.3,115.72,0.48757,0.48777,0.27791,0.06715,0.14251,0.046135,0.072433,-1.9516e-4,0,0,0,0,2.5467e-4,0.018107,15.776,195.47,87.776,-0.0083152,NaN,14.315,1000.9,339.97,0.05,0.015347
1.6362,112.51,146.41,100.68,146.44,100.77,0.83079,-1.5379e-5,0.83079,-0.0010607,2.9388,4.4429,28.61,-80.6,9.7918,0.21722,0,2.7489,-0.0026103,16761,3100.3,12.005,0.050101,200.16,174.6,1.6202,0.43092,27783322,1977.4,124.36,0.48912,0.4892,0.27756,0.067427,0.14414,0.027198,0.043317,2.5716e-4,0,0,0,0,3.7052e-4,0.018751,15.776,195.47,87.901,-0.0092342,NaN,14.269,1000.1,339.95,0.05,0.015608
1.6862,119.96,151.45,100.97,151.48,101.04,0.98303,-2.6527e-5,0.98303,-0.0015461,3.1457,3.8148,28.61,-80.6,9.7918,0.027432,0,2.9969,-0.034083,16703,3041.7,11.971,0.05003,200.75,174.34,1.6736,0.44579,28723495,1984.6,133.4,0.49074,0.49074,0.27719,0.067714,0.14584,0.0034009,0.0052948,-2.141e-6,0,0,0,0,4.1158e-4,0.019396,15.776,195.47,88.046,-0.01124,NaN,14.22,999.18,339.92,0.05,0.015846
1.7362,127.66,156.5,101.25,156.53,101.29,1.1448,-4.0514e-5,1.1448,-0.0020277,3.3189,3.1129,28.61,-80.6,9.7918,0.16911,0,-2.8328,-0.0051476,16644,2983.2,11.937,0.04996,200.41,174.08,1.6686,0.46072,29664840,1991.7,142.85,0.49241,0.49246,0.27681,0.068013,0.14759,0.021154,0.035607,-2.4921e-4,0,0,0,0,-3.4435e-4,0.020043,15.776,195.47,88.194,-0.015692,NaN,14.17,998.28,339.89,0.05,0.016036
1.7862,135.61,161.56,101.49,161.6,101.52,1.3144,-5.8198e-5,1.3144,-0.002537,3.4591,2.5394,28.61,-80.6,9.7918,0.29769,0,-2.2514,-0.0038928,16585,2924.6,11.902,0.04989,200.12,173.82,1.6666,0.47567,30606068,1998.8,152.69,0.49415,0.49428,0.27641,0.068323,0.14941,0.037544,0.063154,8.5376e-5,0,0,0,0,-2.0408e-4,0.020692,15.776,195.47,88.322,-0.018071,NaN,14.119,997.35,339.85,0.05,0.016268
1.8362,143.81,166.64,101.71,166.68,101.73,1.4903,-7.9824e-5,1.4903,-0.0030689,3.575,2.1333,28.61,-80.6,9.7917,0.37015,-7.9058e-7,-1.3809,-0.00364,16527,2866,11.867,0.049819,199.98,173.56,1.6748,0.49066,31547313,2006,162.92,0.49594,0.49615,0.276,0.068644,0.1513,0.046919,0.078532,1.6642e-4,0,0,0,0,-7.217e-5,0.021342,15.776,195.47,88.414,-0.016528,NaN,14.065,996.38,339.82,0.05,0.016478
1.8862,152.27,171.72,101.9,171.76,101.92,1.6716,-1.0456e-4,1.6716,-0.0035839,3.6761,1.9617,28.61,-80.6,9.7917,0.38132,-5.2421e-7,-0.32618,-0.0040841,16468,2807.4,11.833,0.049749,200.02,173.3,1.6938,0.50567,32488358,2013.1,173.52,0.4978,0.49802,0.27558,0.068976,0.15324,0.048413,0.081791,-7.1249e-5,0,0,0,0,-3.792e-6,0.021993,15.776,195.47,88.457,-0.011511,NaN,14.01,995.39,339.79,0.05,0.016712
1.9362,160.99,176.82,102.04,176.86,102.06,1.8579,-1.3109e-4,1.8579,-0.0040428,3.7737,1.9706,28.61,-80.6,9.7917,0.36449,0,0.79083,-0.0046249,16410,2748.8,11.797,0.049679,200.14,173.03,1.7181,0.52073,3.343e7,2019.9,184.52,0.49971,0.49991,0.27514,0.06932,0.15525,0.04628,0.079269,-2.3431e-5,0,0,0,0,2.1025e-5,0.022646,15.776,195.47,88.446,-0.0040916,NaN,13.954,994.37,339.75,0.05,0.016887
1.9862,169.96,181.92,101.71,181.96,101.73,2.0491,-1.5719e-4,2.0491,-0.0043954,3.8781,2.2606,28.61,-80.6,9.7917,0.2884,-6.0508e-7,1.8576,-0.0082799,16351,2690.2,11.762,0.049608,200.42,172.76,1.7533,0.5358,3.437e7,2019.3,195.89,0.50169,0.50181,0.27469,0.069675,0.15732,0.036503,0.063689,-2.4154e-4,0,0,0,0,1.0959e-4,0.023299,15.776,195.47,88.379,0.0050197,NaN,13.895,993.32,339.72,0.05,0.017066
2.0362,179.18,187.01,101.17,187.05,101.21,2.246,-1.7946e-4,2.246,-0.004578,4.0042,2.8015,28.61,-80.6,9.7916,0.16842,-8.4281e-7,2.6516,-0.016103,16292,2631,11.726,0.049537,200.84,172.49,1.7969,0.55083,35305170,2016,207.61,0.50371,0.50376,0.27423,0.07004,0.15944,0.021197,0.037833,-1.8106e-4,0,0,0,0,2.1132e-4,0.02395,15.776,195.47,88.265,0.015807,NaN,13.835,992.24,339.68,0.05,0.017235
2.0862,188.66,192.06,100.61,192.11,100.67,2.45,-1.9397e-4,2.45,-0.004536,4.1598,3.4018,28.61,-80.6,9.7916,0.058696,-5.4104e-7,3.0581,-0.043537,16232,2571.6,11.69,0.049466,201.24,172.21,1.8397,0.5658,36233872,2012.6,219.69,0.50579,0.50579,0.27376,0.070414,0.16162,0.0073505,0.013628,1.7726e-4,0,0,0,0,2.6646e-4,0.024598,15.776,195.47,88.12,0.021879,NaN,13.774,991.12,339.65,0.05,0.017492
2.1362,198.38,197.09,100.02,197.14,100.1,2.6625,-1.9812e-4,2.6625,-0.0042634,4.3459,4.026,28.61,-80.6,9.7916,0.042243,-5.7173e-7,-3.0872,-0.05886,16173,2512.2,11.653,0.049395,201.38,171.94,1.8664,0.5807,37155473,2009.3,232.11,0.50791,0.50791,0.27327,0.070798,0.16384,0.0052915,0.010514,1.3409e-4,0,0,0,0,-2.5787e-4,0.025242,15.776,195.47,87.965,0.023383,NaN,13.711,989.98,339.61,0.05,0.017695
2.1862,208.36,202.09,99.393,202.14,99.508,2.8852,-1.903e-4,2.8852,-0.0037792,4.5657,4.7762,28.61,-80.6,9.7915,0.17131,-7.8849e-7,-2.6334,-0.014999,16114,2452.8,11.616,0.049323,201.12,171.66,1.8677,0.59549,38068349,2005.9,244.86,0.51007,0.51011,0.27278,0.071189,0.1661,0.021642,0.041062,5.7217e-5,0,0,0,0,-1.7845e-4,0.025883,15.776,195.47,87.82,0.017054,NaN,13.646,988.81,339.57,0.05,0.017866
2.2362,218.59,207.05,98.747,207.11,98.895,3.1197,-1.7338e-4,3.1197,-0.0031843,4.822,5.4132,28.61,-80.6,9.7915,0.27635,-5.81e-7,-1.5831,-0.011282,16054,2393.4,11.579,0.049252,200.94,171.37,1.874,0.6102,38972675,2002.5,257.93,0.51227,0.51239,0.27228,0.071588,0.1684,0.035161,0.06573,-5.2845e-5,0,0,0,0,-6.1437e-5,0.026519,15.776,195.47,87.712,0.0063088,NaN,13.579,987.61,339.53,0.05,0.01804
2.2862,229.07,211.99,98.097,212.05,98.255,3.3677,-1.5314e-4,3.3677,-0.0026054,5.0995,5.5604,28.61,-80.6,9.7915,0.28388,1.0839e-6,-0.17353,-0.010849,15995,2334,11.542,0.049181,201.03,171.09,1.8977,0.62483,39869449,1999.2,271.3,0.51452,0.51464,0.27177,0.071996,0.17075,0.03618,0.068925,-1.6784e-4,0,0,0,0,-7.0419e-7,0.027152,15.776,195.47,87.668,-0.0066661,NaN,13.511,986.38,339.49,0.05,0.018262
2.3362,239.79,216.89,97.439,216.95,97.589,3.6296,-1.3663e-4,3.6296,-0.0021568,5.375,5.4135,28.61,-80.6,9.7914,0.25471,2.3906e-6,1.2177,-0.012726,15935,2274.5,11.504,0.049109,201.23,170.8,1.9283,0.63935,40756940,1995.8,284.94,0.5168,0.5169,0.27125,0.072412,0.17314,0.032451,0.062144,2.9539e-4,0,0,0,0,3.3125e-5,0.02778,15.776,195.47,87.694,-0.018872,NaN,13.441,985.13,339.44,0.05,0.018425
2.3862,250.76,221.75,96.773,221.82,96.897,3.905,-1.3143e-4,3.905,-0.0019284,5.6351,4.9036,28.61,-80.6,9.7914,0.17645,1.5028e-6,2.4243,-0.020885,15876,2215.1,11.466,0.049038,201.56,170.52,1.968,0.65378,41635391,1992.4,298.85,0.51912,0.51917,0.27072,0.072835,0.17557,0.022413,0.043521,-3.1641e-4,0,0,0,0,1.2561e-4,0.028404,15.776,195.47,87.787,-0.029647,NaN,13.37,983.84,339.4,0.05,0.018586
2.4362,261.96,226.59,96.097,226.66,96.18,4.1925,-1.4323e-4,4.1925,-0.0019574,5.8595,3.9996,28.61,-80.6,9.7914,0.040903,1.4462e-6,3.0704,-0.074529,15817,2155.7,11.428,0.048967,202.07,170.23,2.0185,0.66811,42505370,1989.1,313.07,0.52148,0.52148,0.27018,0.073265,0.17803,0.0051633,0.010596,-2.0141e-4,0,0,0,0,1.9297e-4,0.029024,15.776,195.47,87.927,-0.031476,NaN,13.297,982.53,339.36,0.05,0.01876
2.4862,273.41,231.39,95.398,231.46,95.44,4.49,-1.7127e-4,4.49,-0.0021856,6.0314,2.8287,28.61,-80.6,9.7913,0.13309,1.2951e-6,-2.7851,-0.023347,15757,2096.3,11.39,0.048895,201.94,169.93,2.0286,0.68237,43367204,1985.7,327.64,0.52388,0.5239,0.26964,0.073704,0.18053,0.016911,0.034022,1.2186e-4,0,0,0,0,-1.5225e-4,0.029639,15.776,195.47,88.078,-0.022993,NaN,13.223,981.18,339.31,0.05,0.018929
2.5362,285.1,236.15,94.659,236.23,94.682,4.7947,-2.0862e-4,4.7947,-0.002493,6.1511,2.0727,28.61,-80.6,9.7913,0.2264,7.7506e-7,-1.5187,-0.0088153,15698,2036.9,11.351,0.048824,201.81,169.64,2.0391,0.6965,44218740,1982.4,342.49,0.5263,0.52639,0.26909,0.074149,0.18306,0.028957,0.058936,-1.253e-4,0,0,0,0,-4.3466e-5,0.030249,15.776,195.47,88.188,-0.0079812,NaN,13.147,979.81,339.27,0.05,0.019092
2.5862,297.03,240.88,93.882,240.96,93.9,5.1047,-2.47e-4,5.1047,-0.0027723,6.2471,1.8269,28.61,-80.6,9.7913,0.24488,7.3888e-7,0.15737,-0.010072,15638,1977.4,11.312,0.048753,201.89,169.34,2.0631,0.71053,45060639,1979,357.59,0.52876,0.52886,0.26853,0.074601,0.18563,0.031398,0.064986,4.6166e-4,0,0,0,0,4.4858e-7,0.030854,15.776,195.47,88.223,0.0059948,NaN,13.069,978.41,339.22,0.05,0.019301
2.6362,309.19,245.56,93.069,245.64,93.093,5.4195,-2.7794e-4,5.4195,-0.0029385,6.3435,2.0974,28.61,-80.6,9.7912,0.19966,7.7543e-7,1.8245,-0.0079516,15579,1918,11.273,0.048681,202.15,169.04,2.0988,0.72446,45893140,1975.6,372.92,0.53125,0.53132,0.26797,0.075059,0.18823,0.025574,0.053252,1.0112e-4,0,0,0,0,5.8018e-5,0.031454,15.776,195.47,88.173,0.017368,NaN,12.99,976.99,339.17,0.05,0.0195
2.6862,321.58,250.21,92.218,250.29,92.263,5.7395,-2.9643e-4,5.7395,-0.0029591,6.4667,2.8868,28.61,-80.6,9.7912,0.09283,7.3727e-7,2.9839,-0.021654,15519,1858.6,11.233,0.04861,202.59,168.74,2.1458,0.73827,46715600,1972.3,388.5,0.53377,0.53379,0.26739,0.075524,0.19086,0.011838,0.024859,-3.0792e-4,0,0,0,0,1.4946e-4,0.032049,15.776,195.47,88.049,0.017201,NaN,12.91,975.53,339.12,0.05,0.019673
2.7362,334.21,254.81,91.143,254.89,91.235,6.067,-3.0201e-4,6.067,-0.0028522,6.6404,4.0879,28.61,-80.6,9.7912,0.065084,5.0069e-7,-3.1127,-0.024444,15460,1799.2,11.193,0.048539,202.81,168.43,2.1791,0.75196,47526811,1966.1,404.34,0.53632,0.53633,0.26682,0.075994,0.19351,0.0082994,0.017807,2.1835e-4,0,0,0,0,-1.5682e-4,0.032638,15.776,195.47,87.892,0.011418,NaN,12.828,974.05,339.07,0.05,0.019914
2.7862,347.06,259.35,89.758,259.44,89.901,6.4046,-2.9741e-4,6.4046,-0.0026607,6.8724,5.0607,28.61,-80.6,9.7911,0.18435,-1.2042e-6,-1.9554,-0.0078221,15402,1741,11.154,0.048469,202.62,168.13,2.1858,0.76549,48325526,1955.6,420.41,0.53888,0.53894,0.26624,0.076469,0.19618,0.0237,0.051809,2.4103e-4,0,0,0,0,-5.9735e-5,0.033221,15.776,195.47,87.761,0.0020036,NaN,12.744,972.55,339.02,0.05,0.020104
2.8362,360.14,263.83,88.367,263.93,88.533,6.7548,-2.9167e-4,6.7548,-0.002474,7.1385,5.4319,28.61,-80.6,9.7911,0.22686,-6.0437e-7,-0.017377,-0.0077581,15345,1684.2,11.116,0.048401,202.64,167.84,2.206,0.77883,49108528,1945,436.6,0.54146,0.54154,0.26565,0.076946,0.19885,0.02928,0.065083,2.7989e-4,0,0,0,0,0,0.033795,15.776,195.47,87.71,-0.0097576,NaN,12.659,971.01,338.97,0.05,0.020327
2.8862,373.44,268.24,86.998,268.34,87.136,7.1184,-2.9277e-4,7.1184,-0.0023565,7.4017,4.9081,28.61,-80.6,9.791,0.16475,-2.9122e-6,1.9463,-0.013675,15288,1627.6,11.077,0.048333,202.96,167.54,2.2451,0.79197,49876100,1934.4,452.83,0.54403,0.54408,0.26507,0.077426,0.20154,0.021224,0.047474,1.345e-4,0,0,0,0,5.5325e-5,0.034361,15.776,195.47,87.76,-0.018737,NaN,12.573,969.45,338.92,0.05,0.020904
2.9362,386.97,272.58,85.637,272.68,85.719,7.4942,-3.0843e-4,7.4942,-0.0023581,7.62,3.7283,28.61,-80.6,9.791,0.033756,-3.3844e-6,2.9664,-0.051372,15232,1571,11.038,0.048265,203.48,167.25,2.297,0.80491,50628053,1923.9,469.16,0.54662,0.54662,0.26449,0.077907,0.20422,0.0043241,0.0097553,4.4603e-4,0,0,0,0,1.2446e-4,0.034917,15.776,195.47,87.888,-0.020092,NaN,12.485,967.87,338.86,0.05,0.021182
2.9862,400.7,276.85,84.261,276.96,84.292,7.8793,-3.3748e-4,7.8793,-0.002454,7.7715,2.2983,28.61,-80.6,9.7909,0.11968,-4.5161e-6,-2.4971,-0.01566,15175,1514.4,10.999,0.048197,203.38,166.94,2.3098,0.81766,51364854,1913.3,485.64,0.5492,0.54923,0.2639,0.078389,0.20691,0.015429,0.035752,5.0049e-5,0,0,0,0,-8.5493e-5,0.035464,15.776,195.47,88.031,-0.010708,NaN,12.395,966.25,338.81,0.05,0.021369
3.0362,414.65,281.05,82.846,281.16,82.858,8.2702,-3.6971e-4,8.2702,-0.0025613,7.8606,1.3815,28.61,-80.6,9.7909,0.20942,-1.9771e-6,-0.57068,-0.0070192,15119,1457.8,10.959,0.048129,203.28,166.64,2.3221,0.8302,52085988,1902.7,502.21,0.55179,0.55187,0.26332,0.078873,0.2096,0.027174,0.06326,-7.7968e-5,0,0,0,0,-4.3327e-6,0.036002,15.776,195.47,88.112,0.0052909,NaN,12.305,964.62,338.76,0.05,0.021545
3.0862,428.8,285.18,81.385,285.29,81.403,8.665,-3.96e-4,8.665,-0.0026185,7.9328,1.6977,28.61,-80.6,9.7909,0.16397,-1.764e-6,1.7326,-0.0064617,15062,1401.1,10.919,0.048061,203.55,166.34,2.359,0.84253,5.279e7,1892.1,518.73,0.55437,0.55442,0.26273,0.079357,0.21228,0.021258,0.050249,-2.3499e-4,0,0,0,0,3.8789e-5,0.036531,15.776,195.47,88.081,0.011513,NaN,12.213,962.96,338.7,0.05,0.021711
3.1362,443.16,289.23,79.877,289.34,79.937,9.0643,-4.1097e-4,9.0643,-0.0025977,8.051,3.1219,28.61,-80.6,9.7908,0.0044446,-1.1652e-6,2.8231,-0.17215,15005,1344.5,10.879,0.047993,204.16,166.03,2.4168,0.85463,53477404,1881.6,535.23,0.55694,0.55694,0.26215,0.07984,0.21495,5.7213e-4,0.0011731,-4.5821e-4,0,0,0,0,1.0012e-4,0.03705,15.776,195.47,87.959,0.0068042,NaN,12.119,961.27,338.64,0.05,0.022067
3.1862,457.73,293.21,78.352,293.33,78.473,9.4714,-4.1961e-4,9.4714,-0.0025384,8.2423,4.3469,28.61,-80.6,9.7908,0.12243,-1.1737e-6,-1.9643,-0.0094199,14949,1287.9,10.839,0.047925,203.96,165.72,2.4242,0.86654,54148961,1871,551.82,0.55951,0.55954,0.26157,0.080323,0.21762,0.015887,0.038872,4.9918e-4,0,0,0,0,-4.7167e-5,0.03756,15.776,195.47,87.833,-0.012302,NaN,12.025,959.57,338.59,0.05,0.022235
3.2362,472.48,297.11,76.848,297.23,76.994,9.8892,-4.3802e-4,9.8892,-0.0025378,8.4742,4.7394,28.61,-80.6,9.7907,0.16064,-4.7871e-6,0.0064813,-0.0088646,14892,1231.3,10.798,0.047857,204,165.41,2.4463,0.87823,54804284,1860.4,568.39,0.56207,0.56211,0.261,0.080805,0.22027,0.020924,0.050932,4.9306e-4,0,0,0,0,0,0.038061,15.776,195.47,87.782,-0.030238,NaN,11.929,957.84,338.53,0.05,0.022425
3.2862,487.44,300.94,75.383,301.07,75.489,10.319,-4.837e-4,10.319,-0.0026858,8.6978,3.9918,28.61,-80.6,9.7907,0.088808,-5.6216e-6,1.8509,-0.030199,14836,1174.7,10.757,0.047789,204.35,165.09,2.4885,0.88972,55443554,1849.9,584.89,0.56461,0.56463,0.26042,0.081285,0.22291,0.011541,0.028527,-3.4798e-4,0,0,0,0,3.975e-5,0.038552,15.776,195.47,87.832,-0.04286,NaN,11.832,956.08,338.47,0.05,0.022618
3.3362,502.58,304.7,73.933,304.83,73.983,10.758,-5.6188e-4,10.758,-0.0029925,8.8665,2.7308,28.61,-80.6,9.7906,0.025613,-6.3895e-6,-2.2881,-0.087469,14779,1118.1,10.716,0.047721,204.68,164.77,2.5294,0.90098,56067001,1839.3,601.26,0.56706,0.56706,0.25977,0.081764,0.22553,0.0033226,0.0086686,-3.0659e-4,0,0,0,0,-5.9261e-5,0.039034,15.776,195.47,87.942,-0.030674,NaN,11.733,954.32,338.41,0.05,0.02285
3.3862,517.9,308.38,72.168,308.51,72.189,11.204,-6.6067e-4,11.204,-0.0033785,8.9772,1.7624,28.61,-80.6,9.7906,0.10511,-4.7012e-6,-1.2071,-0.016564,14722,1061.4,10.674,0.047653,204.59,164.45,2.5442,0.91203,56678271,1823.5,616.7,0.56861,0.56863,0.25824,0.082241,0.22813,0.013718,0.035158,4.3435e-4,0,0,0,0,-1.6102e-5,0.039506,15.776,195.47,88.034,-0.0044993,NaN,11.634,952.61,338.35,0.05,0.023069
3.4362,533.41,311.98,69.983,312.11,70.002,11.655,-7.5334e-4,11.655,-0.0037033,9.0594,1.618,28.61,-80.6,9.7905,0.10698,-5.6343e-6,0.55479,-0.021075,14668,1007.1,10.634,0.047588,204.73,164.15,2.5724,0.92282,57270553,1802.2,631.95,0.57016,0.57018,0.25674,0.082713,0.23071,0.013986,0.036103,3.0255e-4,0,0,0,0,3.3233e-6,0.039966,15.776,195.47,88.051,0.024456,NaN,11.533,950.88,338.29,0.05,0.023279
3.4862,549.1,315.46,67.764,315.6,67.801,12.11,-8.1472e-4,12.11,-0.0038545,9.1551,2.2311,28.61,-80.6,9.7905,0.044959,-7.1545e-6,1.8267,-0.048611,14616,955.2,10.595,0.047525,205.05,163.85,2.6116,0.9333,57840720,1780.9,646.91,0.57171,0.57171,0.25529,0.083178,0.23324,0.0058673,0.015052,-1.0525e-4,0,0,0,0,3.5238e-5,0.040413,15.776,195.47,87.987,0.033789,NaN,11.431,949.12,338.23,0.05,0.02352
3.5362,564.96,318.84,65.539,318.97,65.608,12.571,-8.3966e-4,12.571,-0.0038269,9.2889,3.0156,28.61,-80.6,9.7904,0.026953,-7.2807e-6,-1.9318,-0.056769,14564,903.31,10.556,0.047463,205.24,163.55,2.6427,0.94347,58389048,1759.6,661.62,0.57324,0.57324,0.25389,0.083635,0.23572,0.0035197,0.009412,-1.1385e-4,0,0,0,0,-3.8578e-5,0.040845,15.776,195.47,87.889,0.013058,NaN,11.328,947.35,338.16,0.05,0.023729
3.5862,580.98,322.1,63.32,322.24,63.431,13.04,-8.4798e-4,13.04,-0.0037259,9.4601,3.7476,28.61,-80.6,9.7904,0.093788,-8.2721e-6,-0.86086,-0.024862,14512,851.42,10.517,0.047401,205.18,163.25,2.6581,0.95331,58913987,1738.3,676,0.57475,0.57477,0.25253,0.084083,0.23814,0.012312,0.032876,-1.5981e-4,0,0,0,0,-7.5062e-6,0.041263,15.776,195.47,87.814,-0.023107,NaN,11.224,945.56,338.1,0.05,0.023919
3.6362,597.16,325.25,61.139,325.4,61.254,13.518,-8.7864e-4,13.518,-0.0037241,9.6529,3.751,28.61,-80.6,9.7903,0.09996,-1.1395e-5,0.98814,-0.034471,14460,799.52,10.478,0.047338,205.3,162.94,2.6846,0.96282,59415867,1717,690.01,0.57624,0.57626,0.25121,0.084521,0.24051,0.013147,0.035266,-2.8002e-4,0,0,0,0,9.6992e-6,0.041668,15.776,195.47,87.817,-0.054866,NaN,11.118,943.75,338.04,0.05,0.02425
3.6862,613.5,328.3,59.012,328.44,59.069,14.005,-9.6277e-4,14.005,-0.0039388,9.817,2.5998,28.61,-80.6,9.7903,0.011012,-1.3232e-5,2.1029,-0.29017,14408,747.63,10.438,0.047276,205.68,162.64,2.7286,0.97202,59896357,1695.7,703.67,0.57771,0.57771,0.24994,0.08495,0.24283,0.0014436,0.0037864,1.524e-4,0,0,0,0,4.3115e-5,0.042058,15.776,195.47,87.902,-0.053945,NaN,11.012,941.93,337.97,0.05,0.024496
3.7362,629.99,331.24,56.891,331.38,56.907,14.498,-0.0010941,14.498,-0.004324,9.9147,1.354,28.61,-80.6,9.7902,0.082464,-1.4823e-5,-1.3474,-0.03851,14357,695.73,10.398,0.047214,205.6,162.33,2.7429,0.98091,60355129,1674.4,717,0.57916,0.57917,0.24871,0.085369,0.24508,0.010869,0.029579,-2.5921e-4,0,0,0,0,-1.7387e-5,0.042435,15.776,195.47,87.995,-0.016992,NaN,10.905,940.08,337.91,0.05,0.024722
3.7862,646.62,334.07,54.838,334.22,54.849,14.995,-0.0012278,14.995,-0.0046913,9.9721,1.0808,28.61,-80.6,9.7902,0.09612,-1.5722e-5,0.57185,-0.03527,14305,643.84,10.358,0.047152,205.68,162.02,2.7678,0.98948,60792099,1654.4,729.93,0.58058,0.5806,0.24752,0.085778,0.24728,0.012696,0.034859,-6.5468e-6,0,0,0,0,3.0792e-6,0.042797,15.776,195.47,88.015,0.032097,NaN,10.797,938.23,337.84,0.05,0.025009
3.8362,663.4,336.8,53.334,336.95,53.37,15.496,-0.0013168,15.496,-0.004869,10.046,1.9558,28.61,-80.6,9.7901,0.022368,-1.4047e-5,1.8755,-0.12066,14254,592.94,10.318,0.04709,206.02,161.71,2.8083,0.99776,61208130,1642.7,742.45,0.58197,0.58197,0.24638,0.086177,0.24942,0.0029471,0.0083781,-3.5935e-4,0,0,0,0,3.2586e-5,0.043147,15.776,195.47,87.948,0.038124,NaN,10.688,936.35,337.78,0.05,0.025285
3.8862,680.3,339.44,51.44,339.59,51.524,16.001,-0.0013615,16.001,-0.0048753,10.171,2.9438,28.61,-80.6,9.7901,0.057954,-1.29e-5,-1.4132,-0.033901,14205,544.11,10.279,0.047032,206.03,161.42,2.8278,1.0058,61607140,1632.4,761.6,0.58867,0.58867,0.24526,0.094843,0.24856,0.0076612,0.021273,4.1844e-4,0,0,0,0,-1.8214e-5,0.043486,15.776,195.47,87.859,0.010556,NaN,10.578,934.46,337.71,0.05,0.025666
3.9362,697.34,341.98,49.446,342.14,49.544,16.513,-0.0013907,16.513,-0.0048252,10.328,3.1107,28.61,-80.6,9.79,0.073792,-1.6497e-5,0.13754,-0.030755,14157,496.35,10.242,0.046974,206.09,161.13,2.8505,1.0135,61986366,1622.1,782.34,0.5967,0.59671,0.24419,0.10585,0.24666,0.0097765,0.027404,-3.9433e-4,0,0,0,0,1.6998e-7,0.043812,15.776,195.47,87.826,-0.026872,NaN,10.467,932.56,337.64,0.05,0.025936
3.9862,714.5,344.43,47.541,344.59,47.612,17.034,-0.001447,17.034,-0.0048674,10.473,2.6146,28.61,-80.6,9.79,0.042104,-1.614e-5,1.4435,-0.021185,14109,448.58,10.204,0.046917,206.29,160.83,2.8817,1.021,62344780,1611.8,802.02,0.60407,0.60407,0.24316,0.11605,0.24486,0.005576,0.015894,-1.3377e-4,0,0,0,0,1.8458e-5,0.044126,15.776,195.47,87.869,-0.034508,NaN,10.356,930.64,337.57,0.05,0.026188
4.0362,731.78,346.79,45.908,346.95,45.928,17.56,-0.0015317,17.56,-0.0049978,10.575,1.3555,28.61,-80.6,9.7899,0.046913,-1.465e-5,-1.4494,-0.020141,14062,400.82,10.165,0.04686,206.38,160.54,2.9062,1.0282,62686155,1601.5,818.05,0.60881,0.60882,0.24217,0.1235,0.24315,0.0062224,0.018252,2.0091e-4,0,0,0,0,-1.8356e-5,0.044428,15.776,195.47,87.949,-0.015831,NaN,10.243,928.71,337.51,0.05,0.026433
4.0862,749.18,349.06,44.266,349.23,44.272,18.09,-0.0016238,18.09,-0.0051431,10.623,0.75633,28.61,-80.6,9.7899,0.085591,-1.5054e-5,0.29333,-0.031019,14014,353.05,10.127,0.046802,206.37,160.24,2.9242,1.0352,63010836,1591.2,833.7,0.61342,0.61344,0.2412,0.13071,0.24151,0.01139,0.033294,5.6999e-5,0,0,0,0,7.4206e-7,0.044719,15.776,195.47,87.98,0.01546,NaN,10.13,926.77,337.44,0.05,0.026663
4.1362,766.68,351.26,42.659,351.42,42.689,18.622,-0.0016875,18.622,-0.0051919,10.678,1.6103,28.61,-80.6,9.7898,0.018922,-1.4576e-5,1.694,-0.1486,13966,305.29,10.088,0.046745,206.66,159.94,2.9616,1.0419,63318147,1580.9,848,0.61725,0.61725,0.24027,0.13702,0.23995,0.0025121,0.0073856,-1.0249e-4,0,0,0,0,2.444e-5,0.045,15.776,195.47,87.924,0.039893,NaN,10.017,924.81,337.37,0.05,0.026894
4.1862,784.3,353.38,41.217,353.54,41.303,19.159,-0.0017007,19.159,-0.0050861,10.789,2.6689,28.61,-80.6,9.7898,0.059924,-1.4347e-5,-1.0854,-0.046618,13918,257.52,10.049,0.046688,206.63,159.64,2.979,1.0484,6.361e7,1570.6,859.71,0.61936,0.61936,0.23937,0.14152,0.23847,0.0079822,0.023347,-2.206e-4,0,0,0,0,-9.9141e-6,0.045272,15.776,195.47,87.847,0.021305,NaN,9.902,922.84,337.3,0.05,0.027131
4.2362,802.02,355.42,39.762,355.59,39.86,19.702,-0.0016865,19.702,-0.0049045,10.931,2.7871,28.61,-80.6,9.7897,0.071233,-1.5664e-5,0.71312,-0.029381,13871,209.76,10.01,0.04663,206.69,159.33,3.0019,1.0547,63888184,1559.4,871.08,0.62142,0.62143,0.2385,0.14587,0.23705,0.0095048,0.028689,-2.5478e-4,0,0,0,0,4.2304e-6,0.045534,15.776,195.47,87.837,-0.014809,NaN,9.7869,920.86,337.23,0.05,0.02736
4.2862,819.84,357.4,33.377,357.57,33.413,20.252,-0.0016899,20.252,-0.004781,11.048,1.5583,28.61,-80.6,9.7897,0.0020855,-1.7784e-5,1.5976,-0.72601,13823,162.32,9.9704,0.046573,206.98,159.03,3.0394,1.0607,64151577,1478.9,881.77,0.62321,0.62321,0.23766,0.14986,0.23569,2.7754e-4,4.401e-4,7.7394e-5,0,0,0,0,2.0998e-5,0.045788,15.776,195.47,87.906,-0.025619,NaN,9.671,918.87,337.16,0.05,0.027585
4.3362,837.75,359.06,24.029,359.23,24.031,20.805,-0.0017211,20.805,-0.0047397,11.098,0.26659,28.61,-80.6,9.7896,0.063776,-1.6069e-5,-0.80769,-0.023975,13778,117.54,9.9331,0.04652,206.87,158.74,3.0508,1.0659,64356999,1354.5,888.67,0.62338,0.62338,0.23695,0.15188,0.23455,0.0085231,0.026304,-3.0868e-4,0,0,0,0,-5.3173e-6,0.046001,15.776,195.47,87.976,-0.0061451,NaN,9.5546,916.87,337.09,0.05,0.027818
4.3862,855.74,360.26,-0.18699,360.43,0.4813,21.36,-0.0017561,21.36,-0.0047104,11.11,0.4435,28.61,-80.6,9.7895,0.052878,-1.4772e-5,0.92222,-0.019186,13736,75.309,9.8977,0.046469,206.96,158.47,3.0735,1.0697,64477648,1024.8,893.19,0.62351,0.62351,0.23643,0.15336,0.23372,0.0070671,0.022073,3.0577e-4,0,0,0,0,6.8863e-6,0.046154,15.776,195.47,87.971,0.017305,NaN,9.4377,914.86,337.02,0.05,0.028041
4.4362,873.75,360.25,-37.293,360.43,37.299,21.916,-0.0017681,21.916,-0.0046226,11.115,0.66313,28.61,-80.6,9.7895,0.027892,-1.4979e-5,-1.3396,-0.04095,13703,42.015,9.8696,0.046429,207.03,158.25,3.0921,1.0699,64381816,514.64,891.55,0.62351,0.62351,0.2364,0.15344,0.23367,0.003723,0.011476,4.0711e-5,0,0,0,0,-1.453e-5,0.046154,15.776,195.47,87.906,0.023457,NaN,9.3206,912.85,336.95,0.05,0.028287
4.4862,891.72,358.41,-58.631,358.58,58.639,22.471,-0.0017521,22.471,-0.0044673,11.101,0.91623,28.61,-80.6,9.7894,0.068308,-1.158e-5,0.15476,-0.011925,13680,19.275,9.8504,0.046402,206.84,158.1,3.0894,1.0646,63957904,212.48,880.6,0.62333,0.62334,0.23713,0.15138,0.23483,0.009129,0.028522,-3.5511e-4,0,0,0,0,1.9594e-7,0.045917,15.776,195.47,87.873,0.016459,NaN,9.2038,910.84,336.88,0.05,0.028511
4.5362,909.56,355.5,-68.578,355.68,68.597,23.025,-0.0017163,23.025,-0.004271,11.049,1.6424,28.61,-80.6,9.7894,0.039537,-1.0168e-5,1.6687,-0.0030448,13666,5.4931,9.8387,0.046385,206.81,158.01,3.093,1.0562,63346812,59.203,862.87,0.62192,0.62193,0.23829,0.14693,0.2367,0.005268,0.016438,-4.3695e-4,0,0,0,0,2.3155e-5,0.045545,15.776,195.47,87.923,0.0059983,NaN,9.0878,908.85,336.81,0.05,0.028725
4.5862,927.25,352.12,-71.12,352.29,71.177,23.575,-0.0016738,23.575,-0.004068,10.942,2.8318,28.61,-80.6,9.7893,0.049807,-1.0576e-5,-1.5935,0.0011625,13662,1.232,9.8351,0.04638,206.64,157.98,3.084,1.0463,62652368,1.9153,840.62,0.6187,0.6187,0.23965,0.14011,0.23893,0.0066287,0.020178,4.236e-4,0,0,0,0,-2.1524e-5,0.045111,15.776,195.47,88.014,0.0083472,NaN,8.9729,906.87,336.74,0.05,0.02893
# Event BURNOUT occurred at t=4.6362 seconds
# Event EJECTION_CHARGE occurred at t=4.6362 seconds
4.6362,944.77,348.6,-69.473,348.77,69.55,24.118,-0.001625,24.118,-0.0038604,10.785,3.2701,28.61,-80.6,9.7893,0.091789,-1.1466e-5,0.38711,-0.0061681,13661,0.1476,9.8341,0.046379,206.37,157.98,3.0674,1.0361,61938514,0,816.35,0.61406,0.61408,0.24107,0.1317,0.24129,0.012221,0.037768,-2.5639e-4,0,0,0,0,1.2959e-6,0.044661,15.776,195.47,88.047,0.01894,NaN,8.859,904.92,336.67,0.05,0.029281
4.6862,962.11,345.18,-67.598,345.34,67.645,24.654,-0.0015636,24.654,-0.0036338,10.637,2.5247,28.61,-80.6,9.7892,0.034852,-1.1089e-5,2.0843,-0.03015,13661,0,9.834,0.046379,206.39,157.97,3.0689,1.0261,61242678,0,790.4,0.60746,0.60747,0.24245,0.12139,0.24363,0.0046181,0.014515,-9.8488e-5,0,0,0,0,3.8317e-5,0.044222,15.776,195.47,87.979,0.020051,NaN,8.7463,902.98,336.6,0.05,0.029501
4.7362,979.29,341.84,-65.709,342,65.721,25.183,-0.0014878,25.183,-0.0033849,10.543,1.2568,28.61,-80.6,9.7892,0.06964,-9.5847e-6,-1.6455,-0.014539,13661,0,9.834,0.046379,206.15,157.97,3.0536,1.0164,60565065,0,763.99,0.59971,0.59972,0.24379,0.10996,0.24596,0.0092291,0.027813,-3.2143e-4,0,0,0,0,-2.4351e-5,0.043795,15.776,195.47,87.876,0.020666,NaN,8.6346,901.06,336.53,0.05,0.029702
4.7862,996.3,338.61,-63.676,338.77,63.686,25.709,-0.0013979,25.709,-0.0031155,10.49,1.1293,28.61,-80.6,9.7891,0.077988,-1.0866e-5,0.33693,-0.0058619,13661,0,9.834,0.046379,205.99,157.97,3.0435,1.007,59908477,0,736.16,0.58995,0.58996,0.24509,0.096606,0.24825,0.010323,0.031249,-8.0205e-5,0,0,0,0,1.0405e-6,0.04338,15.776,195.47,87.843,0.013339,NaN,8.524,899.16,336.46,0.05,0.029902
4.8362,1013.2,335.47,-61.859,335.63,61.884,26.232,-0.0013023,26.232,-0.0028445,10.418,1.7459,28.61,-80.6,9.7891,0.017972,-1.0542e-5,1.4555,0.0082897,13661,0,9.834,0.046379,206.03,157.97,3.0463,0.99791,59275669,0,711.68,0.582,0.582,0.24635,0.086184,0.24946,0.0023674,0.0076794,1.1501e-4,0,0,0,0,1.978e-5,0.042979,15.776,195.47,87.894,0.010295,NaN,8.4145,897.35,336.4,0.05,0.030081
4.8862,1029.8,332.41,-60.676,332.57,60.722,26.75,-0.0012031,26.75,-0.0025769,10.314,2.3502,28.61,-80.6,9.789,0.043085,-1.0561e-5,-1.1319,3.8467e-4,13661,0,9.834,0.046379,205.83,157.97,3.0335,0.98899,58658331,0,695.83,0.5805,0.5805,0.24759,0.085754,0.24715,0.0056744,0.01716,-4.8997e-5,0,0,0,0,-1.2185e-5,0.042586,15.776,195.47,87.963,0.014447,NaN,8.306,895.57,336.33,0.05,0.030313
4.9362,1046.4,329.4,-59.549,329.56,59.602,27.263,-0.0010976,27.263,-0.0023066,10.191,2.5104,28.61,-80.6,9.789,0.063694,-1.2567e-5,0.12139,0.010087,13661,0,9.834,0.046379,205.65,157.97,3.0218,0.98023,58053247,0,680.52,0.57905,0.57906,0.2488,0.085337,0.24491,0.0083853,0.025553,1.3541e-4,0,0,0,0,1.4272e-7,0.042201,15.776,195.47,87.99,0.01069,NaN,8.1984,893.81,336.27,0.05,0.030544
4.9862,1062.8,326.45,-58.48,326.61,58.517,27.769,-9.9015e-4,27.769,-0.002043,10.074,2.0759,28.61,-80.6,9.7889,0.026632,-1.3903e-5,1.1677,0.04241,13661,0,9.834,0.046379,205.63,157.97,3.021,0.97164,5.746e7,0,665.71,0.57765,0.57765,0.24999,0.084932,0.24273,0.0034941,0.010224,4.3206e-5,0,0,0,0,1.3445e-5,0.041823,15.776,195.47,87.954,-0.0060805,NaN,8.0919,892.07,336.2,0.05,0.030894
5.0362,1079,323.55,-57.453,323.71,57.472,28.271,-8.9571e-4,28.271,-0.0018153,9.9862,1.476,28.61,-80.6,9.7889,0.029443,-1.3146e-5,-1.1216,0.033412,13661,0,9.834,0.046379,205.51,157.97,3.0129,0.9632,56877865,0,651.4,0.5763,0.5763,0.25116,0.084538,0.24061,0.0038579,0.011936,-1.3398e-5,0,0,0,0,-1.2628e-5,0.041452,15.776,195.47,87.893,-0.011725,NaN,7.9862,890.34,336.14,0.05,0.031077
5.0862,1095.1,320.71,-56.45,320.86,56.463,28.768,-8.1799e-4,28.768,-0.0016291,9.9209,1.2131,28.61,-80.6,9.7888,0.053857,-1.2602e-5,-0.20228,0.023676,13661,0,9.834,0.046379,205.32,157.97,3.0011,0.95491,56306708,0,637.56,0.575,0.57501,0.2523,0.084156,0.23854,0.0070564,0.020781,1.5889e-4,0,0,0,0,-4.1807e-7,0.041087,15.776,195.47,87.858,0.0097434,NaN,7.8815,888.62,336.08,0.05,0.031258
5.1362,1111.1,317.91,-55.46,318.06,55.478,29.263,-7.3654e-4,29.263,-0.0014421,9.8571,1.3909,28.61,-80.6,9.7888,0.03326,-1.0725e-5,0.71381,0.026598,13661,0,9.834,0.046379,205.27,157.97,2.9977,0.94676,55745903,0,624.15,0.57374,0.57374,0.25343,0.083784,0.23653,0.0043472,0.01265,-4.466e-4,0,0,0,0,5.2978e-6,0.040729,15.776,195.47,87.873,0.032741,NaN,7.7778,886.93,336.01,0.05,0.031491
5.1862,1126.9,315.16,-54.49,315.31,54.524,29.754,-6.3243e-4,29.754,-0.0012179,9.7748,1.9343,28.61,-80.6,9.7887,0.026161,-1.0157e-5,-0.80788,0.037365,13661,0,9.834,0.046379,205.18,157.97,2.9921,0.93876,55195793,0,611.18,0.57253,0.57253,0.25454,0.083422,0.23456,0.0034135,0.010486,4.0808e-4,0,0,0,0,-6.9049e-6,0.040377,15.776,195.47,87.915,0.034545,NaN,7.6749,885.24,335.95,0.05,0.031661
5.2362,1142.6,312.46,-53.559,312.61,53.606,30.24,-5.081e-4,30.24,-9.6271e-4,9.6681,2.2514,28.61,-80.6,9.7887,0.063166,-8.4134e-6,0.1173,0.016743,13661,0,9.834,0.046379,204.96,157.97,2.9785,0.93089,54655716,0,598.62,0.57135,0.57136,0.25563,0.08307,0.23265,0.0082484,0.024501,-2.3432e-5,0,0,0,0,1.4809e-7,0.04003,15.776,195.47,87.935,0.016748,NaN,7.5729,883.57,335.89,0.05,0.031824
5.2862,1158.2,309.8,-52.674,309.95,52.713,30.72,-3.8205e-4,30.72,-7.1255e-4,9.559,2.0401,28.61,-80.6,9.7886,0.043654,-9.2202e-6,1.1741,0.019185,13661,0,9.834,0.046379,204.92,157.97,2.9756,0.92316,54125104,0,586.44,0.57021,0.57022,0.2567,0.082728,0.23079,0.0056875,0.017308,-3.236e-4,0,0,0,0,1.5091e-5,0.03969,15.776,195.47,87.901,-0.0017311,NaN,7.4718,881.92,335.83,0.05,0.032018
5.3362,1173.6,307.19,-51.83,307.34,51.85,31.196,-2.6513e-4,31.196,-4.8695e-4,9.4713,1.4345,28.61,-80.6,9.7886,0.020488,-8.2156e-6,-1.4191,0.041789,13661,0,9.834,0.046379,204.88,157.97,2.9734,0.91554,53603305,0,574.61,0.56911,0.56911,0.25775,0.082394,0.22897,0.0026629,0.0081523,-8.452e-5,0,0,0,0,-2.2423e-5,0.039355,15.776,195.47,87.831,-0.0043115,NaN,7.3715,880.28,335.77,0.05,0.032224
5.3862,1188.9,304.62,-51.003,304.77,51.015,31.668,-1.6043e-4,31.668,-2.9027e-4,9.4099,1.1185,28.61,-80.6,9.7885,0.055068,-6.8836e-6,-0.66194,0.0083714,13661,0,9.834,0.046379,204.68,157.97,2.9608,0.90806,53090823,0,563.15,0.56805,0.56805,0.25879,0.082068,0.22719,0.0071626,0.021349,1.4725e-4,0,0,0,0,-4.9614e-6,0.039026,15.776,195.47,87.777,0.0039264,NaN,7.2721,878.65,335.71,0.05,0.032621
5.4362,1204.1,302.09,-50.186,302.24,50.199,32.137,-5.9366e-5,32.137,-1.0584e-4,9.354,1.1508,28.61,-80.6,9.7885,0.049898,-8.1519e-6,0.2779,0.0082487,13661,0,9.834,0.046379,204.6,157.97,2.9557,0.90068,52586840,0,552.02,0.56702,0.56702,0.25981,0.081751,0.22546,0.0064813,0.019571,-4.4679e-5,0,0,0,0,8.8921e-7,0.038702,15.776,195.47,87.768,0.014216,NaN,7.1735,877.04,335.65,0.05,0.032823
5.4862,1219.1,299.6,-49.344,299.75,49.364,32.603,4.4834e-5,32.603,7.8789e-5,9.2907,1.3932,28.61,-80.6,9.7884,0.018193,-9.1625e-6,0.88334,0.029861,13661,0,9.834,0.046379,204.6,157.97,2.9556,0.89342,52091074,0,540.66,0.56544,0.56544,0.26023,0.081442,0.22377,0.0023566,0.0068174,2.188e-4,0,0,0,0,9.1339e-6,0.038383,15.776,195.47,87.8,0.022401,NaN,7.0758,875.44,335.59,0.05,0.033028
5.5362,1234,297.16,-48.519,297.3,48.551,33.066,1.5789e-4,33.066,2.7358e-4,9.2122,1.7505,28.61,-80.6,9.7884,0.028634,-9.6176e-6,-0.80463,0.014505,13661,0,9.834,0.046379,204.48,157.97,2.9479,0.88628,51604062,0,529.59,0.56385,0.56385,0.26059,0.081141,0.22211,0.0037072,0.010994,-3.4143e-4,0,0,0,0,-7.7039e-6,0.03807,15.776,195.47,87.845,0.034842,NaN,6.9788,873.85,335.53,0.05,0.033233
5.5862,1248.8,294.75,-47.73,294.89,47.764,33.524,2.8758e-4,33.524,4.9149e-4,9.1214,1.8038,28.61,-80.6,9.7883,0.040567,-8.807e-6,-0.17354,0.0026617,13661,0,9.834,0.046379,204.36,157.97,2.9401,0.87925,51124990,0,518.84,0.56229,0.5623,0.26095,0.080847,0.2205,0.0052503,0.015609,3.1548e-4,0,0,0,0,-3.6425e-7,0.037762,15.776,195.47,87.87,0.038223,NaN,6.8826,872.28,335.47,0.05,0.033422
5.6362,1263.5,292.38,-46.969,292.52,47.002,33.978,4.353e-4,33.978,7.3404e-4,9.0325,1.7751,28.61,-80.6,9.7883,0.040765,-8.1633e-6,0.46299,-0.001203,13661,0,9.834,0.046379,204.27,157.97,2.9345,0.87234,50654718,0,508.43,0.56078,0.56078,0.26129,0.080561,0.21893,0.0052708,0.01564,-2.386e-4,0,0,0,0,2.6347e-6,0.037458,15.776,195.47,87.863,0.033175,NaN,6.7872,870.72,335.41,0.05,0.033656
5.6862,1278.1,290.05,-46.242,290.19,46.262,34.428,5.9485e-4,34.428,9.8998e-4,8.9522,1.3557,28.61,-80.6,9.7882,0.0076004,-8.3375e-6,-0.79093,-0.017392,13661,0,9.834,0.046379,204.28,157.97,2.9352,0.86553,50191545,0,498.31,0.55929,0.55929,0.26162,0.080282,0.21739,9.7999e-4,0.0033433,9.3767e-5,0,0,0,0,-7.813e-6,0.03716,15.776,195.47,87.828,0.01682,NaN,6.6925,869.17,335.35,0.05,0.033817
5.7362,1292.5,287.76,-45.532,287.9,45.546,34.874,7.5486e-4,34.874,0.0012402,8.8921,1.1354,28.61,-80.6,9.7882,0.033412,-8.1546e-6,-0.39472,-0.0078401,13661,0,9.834,0.046379,204.12,157.97,2.9253,0.85883,49736520,0,488.49,0.55785,0.55785,0.26195,0.080009,0.21589,0.0043102,0.012756,1.4279e-5,0,0,0,0,-1.977e-6,0.036866,15.776,195.47,87.797,-0.0064242,NaN,6.5986,867.63,335.3,0.05,0.033969
5.7862,1306.8,285.5,-44.835,285.64,44.848,35.317,8.9972e-4,35.317,0.0014596,8.8371,1.0643,28.61,-80.6,9.7882,0.039891,-7.0732e-6,0.15881,-0.0069823,13661,0,9.834,0.046379,204.02,157.97,2.919,0.85224,49288704,0,478.95,0.55643,0.55643,0.26227,0.079743,0.21442,0.0051433,0.014606,-4.5715e-4,0,0,0,0,3.251e-7,0.036576,15.776,195.47,87.791,-0.020134,NaN,6.5055,866.11,335.24,0.05,0.034127
5.8362,1321.1,283.28,-44.151,283.41,44.167,35.757,0.0010241,35.757,0.0016409,8.7819,1.1792,28.61,-80.6,9.7881,0.021298,-6.142e-6,0.64908,-0.0014976,13661,0,9.834,0.046379,204,157.97,2.9174,0.84573,48848036,0,469.67,0.55505,0.55505,0.26258,0.079484,0.21298,0.0027409,0.0078629,1.6727e-4,0,0,0,0,5.5168e-6,0.036292,15.776,195.47,87.812,-0.0065638,NaN,6.4131,864.59,335.19,0.05,0.034288
5.8862,1335.2,281.08,-43.478,281.22,43.506,36.195,0.0011377,36.195,0.001801,8.7142,1.5649,28.61,-80.6,9.7881,0.033429,-5.9096e-6,-0.60075,-0.015192,13661,0,9.834,0.046379,203.89,157.97,2.9103,0.83934,48415206,0,460.68,0.5537,0.5537,0.26288,0.079231,0.21158,0.0043012,0.012755,4.7958e-4,0,0,0,0,-4.7996e-6,0.036011,15.776,195.47,87.847,0.021121,NaN,6.3214,863.09,335.13,0.05,0.034446
5.9362,1349.2,278.93,-42.833,279.06,42.865,36.628,0.0012572,36.628,0.0019666,8.6317,1.6422,28.61,-80.6,9.788,0.048269,-5.0653e-6,0.066377,-0.015799,13661,0,9.834,0.046379,203.77,157.97,2.9028,0.83304,47988649,0,451.92,0.55238,0.55239,0.26318,0.078984,0.21021,0.0062105,0.017858,-4.0017e-4,0,0,0,0,5.9503e-8,0.035734,15.776,195.47,87.861,0.04581,NaN,6.2304,861.6,335.07,0.05,0.034651
5.9862,1363.1,276.8,-42.218,276.93,42.24,37.058,0.0013963,37.058,0.0021588,8.5554,1.3761,28.61,-80.6,9.788,0.015845,-4.9158e-6,0.54373,-0.037943,13661,0,9.834,0.046379,203.79,157.97,2.904,0.82682,47568182,0,443.38,0.55109,0.55109,0.26348,0.078742,0.20887,0.0020334,0.0061358,-6.1952e-5,0,0,0,0,4.0543e-6,0.035462,15.776,195.47,87.843,0.049977,NaN,6.1401,860.13,335.02,0.05,0.034806
6.0362,1376.9,274.7,-41.617,274.84,41.635,37.484,0.0015565,37.484,0.0023792,8.4921,1.2044,28.61,-80.6,9.7879,0.0061183,-5.0452e-6,-0.56201,-0.055741,13661,0,9.834,0.046379,203.74,157.97,2.9013,0.82069,47154804,0,435.09,0.54983,0.54983,0.26376,0.078506,0.20756,7.8412e-4,0.0027596,9.5152e-5,0,0,0,0,-4.3979e-6,0.035193,15.776,195.47,87.815,0.027873,NaN,6.0504,858.66,334.97,0.05,0.034961
6.0862,1390.5,272.64,-41.035,272.77,41.046,37.907,0.0017229,37.907,0.0026041,8.4374,0.94502,28.61,-80.6,9.7879,0.040312,-5.1999e-6,-0.28494,-0.015828,13661,0,9.834,0.046379,203.58,157.97,2.8905,0.81464,46747081,0,427.02,0.54859,0.54859,0.26404,0.078275,0.20627,0.0051721,0.014642,-4.6405e-5,0,0,0,0,-1.1477e-6,0.034929,15.776,195.47,87.792,-9.8937e-4,NaN,5.9615,857.2,334.91,0.05,0.035114
6.1362,1404.1,270.6,-40.458,270.73,40.47,38.328,0.0018779,38.328,0.0028072,8.3913,0.98139,28.61,-80.6,9.7879,0.032842,-5.1587e-6,0.27274,-0.01507,13661,0,9.834,0.046379,203.53,157.97,2.8876,0.80869,46346002,0,419.16,0.54738,0.54738,0.26431,0.078049,0.20502,0.0042088,0.011691,2.5884e-4,0,0,0,0,1.0674e-6,0.034668,15.776,195.47,87.792,-0.017385,NaN,5.8732,855.76,334.86,0.05,0.035281
6.1862,1417.6,268.59,-39.893,268.72,39.908,38.746,0.0020131,38.746,0.0029769,8.339,1.0915,28.61,-80.6,9.7878,0.01313,-5.2769e-6,0.54587,-0.029728,13661,0,9.834,0.046379,203.52,157.97,2.8869,0.80281,45950646,0,411.5,0.5462,0.5462,0.26458,0.077828,0.20379,0.0016796,0.0049103,2.4161e-4,0,0,0,0,4.3399e-6,0.034411,15.776,195.47,87.813,-0.012456,NaN,5.7856,854.33,334.8,0.05,0.035449
6.2362,1431,266.61,-39.342,266.74,39.361,39.162,0.0021332,39.162,0.003121,8.2814,1.2143,28.61,-80.6,9.7878,0.0096299,-5.2708e-6,-0.58054,-0.029212,13661,0,9.834,0.046379,203.46,157.97,2.8834,0.79701,45560991,0,404.04,0.54504,0.54504,0.26484,0.077612,0.20258,0.0012307,0.0031742,8.2688e-5,0,0,0,0,-4.9821e-6,0.034157,15.776,195.47,87.843,0.010777,NaN,5.6986,852.9,334.75,0.05,0.035618
6.2862,1444.3,264.66,-38.808,264.79,38.828,39.575,0.0022536,39.575,0.0032627,8.219,1.2614,28.61,-80.6,9.7877,0.021483,-5.6084e-6,-0.36577,-0.0045525,13661,0,9.834,0.046379,203.36,157.97,2.8771,0.79129,45176863,0,396.77,0.5439,0.5439,0.2651,0.077401,0.2014,0.0027455,0.0078575,2.7046e-4,0,0,0,0,-2.007e-6,0.033906,15.776,195.47,87.867,0.041612,NaN,5.6123,851.49,334.7,0.05,0.035785
6.3362,1457.4,262.73,-38.288,262.86,38.31,39.984,0.0023911,39.984,0.0034263,8.1553,1.2921,28.61,-80.6,9.7877,0.03014,-5.7037e-6,-0.059645,0.0040551,13661,0,9.834,0.046379,203.28,157.97,2.8716,0.78565,44798565,0,389.69,0.54279,0.54279,0.26535,0.077194,0.20024,0.0038511,0.010792,1.5215e-4,0,0,0,0,-5.4154e-8,0.03366,15.776,195.47,87.878,0.05765,NaN,5.5266,850.09,334.65,0.05,0.035959
6.3862,1470.5,260.83,-37.782,260.95,37.805,40.39,0.0025509,40.39,0.0036186,8.0905,1.2931,28.61,-80.6,9.7877,0.033182,-5.9148e-6,0.3191,-0.0013414,13661,0,9.834,0.046379,203.21,157.97,2.8671,0.78009,44425994,0,382.79,0.5417,0.5417,0.2656,0.076992,0.19911,0.0042377,0.012109,2.2937e-4,0,0,0,0,1.5727e-6,0.033416,15.776,195.47,87.871,0.050863,NaN,5.4415,848.69,334.6,0.05,0.036127
6.4362,1483.5,258.95,-37.294,259.08,37.312,40.793,0.0027284,40.793,0.0038322,8.0284,1.1694,28.61,-80.6,9.7876,0.015712,-5.9975e-6,0.63628,-0.010482,13661,0,9.834,0.046379,203.2,157.97,2.8665,0.7746,44058584,0,376.07,0.54063,0.54063,0.26584,0.076794,0.198,0.0020034,0.0058814,-9.0223e-7,0,0,0,0,6.3439e-6,0.033175,15.776,195.47,87.847,0.036699,NaN,5.3571,847.31,334.55,0.05,0.03632
6.4862,1496.4,257.1,-36.818,257.22,36.833,41.193,0.0029146,41.193,0.0040539,7.9732,1.0576,28.61,-80.6,9.7876,0.0012428,-5.9251e-6,-0.70154,0.06951,13661,0,9.834,0.046379,203.18,157.97,2.8654,0.76918,43696537,0,369.51,0.53959,0.53959,0.26608,0.0766,0.19691,1.5824e-4,6.218e-4,3.9042e-4,0,0,0,0,-7.8232e-6,0.032938,15.776,195.47,87.812,0.017917,NaN,5.2732,845.94,334.49,0.05,0.036509
6.5362,1509.2,255.27,-36.354,255.39,36.367,41.59,0.0030985,41.59,0.0042686,7.9228,0.95725,28.61,-80.6,9.7875,0.01684,-5.9772e-6,-0.60137,0.017879,13661,0,9.834,0.046379,203.08,157.97,2.8589,0.76383,43341892,0,363.13,0.53857,0.53857,0.26631,0.07641,0.19585,0.0021446,0.0062498,9.8634e-5,0,0,0,0,-5.8312e-6,0.032704,15.776,195.47,87.779,-0.0057535,NaN,5.1899,844.62,334.44,0.05,0.036669
6.5862,1522,253.46,-35.902,253.59,35.913,41.985,0.0032683,41.985,0.0044602,7.8769,0.88592,28.61,-80.6,9.7875,0.027559,-6.1143e-6,-0.35309,0.011697,13661,0,9.834,0.046379,202.99,157.97,2.8534,0.75855,42992830,0,356.91,0.53756,0.53756,0.26654,0.076224,0.1948,0.0035096,0.0097356,3.6573e-4,0,0,0,0,-2.039e-6,0.032472,15.776,195.47,87.755,-0.025847,NaN,5.1073,843.34,334.39,0.05,0.036827
6.6362,1534.6,251.68,-35.456,251.8,35.467,42.378,0.0034145,42.378,0.0046164,7.8325,0.9088,28.61,-80.6,9.7875,0.022119,-6.0123e-6,-0.060822,0.0088797,13661,0,9.834,0.046379,202.95,157.97,2.8509,0.75333,42648486,0,350.84,0.53658,0.53658,0.26676,0.076042,0.19378,0.0028143,0.0079926,1.07e-5,0,0,0,0,-6.1359e-8,0.032244,15.776,195.47,87.745,-0.03159,NaN,5.0252,842.06,334.34,0.05,0.036989
6.6862,1547.1,249.92,-35.015,250.04,35.032,42.769,0.0035366,42.769,0.0047379,7.7833,1.0826,28.61,-80.6,9.7874,0.0096063,-6.1329e-6,-0.022009,-0.026149,13661,0,9.834,0.046379,202.93,157.97,2.8497,0.74818,42309186,0,344.92,0.53561,0.53561,0.26698,0.075864,0.19277,0.0012207,0.0035683,-2.4202e-4,0,0,0,0,-8.1479e-9,0.032018,15.776,195.47,87.745,-0.011814,NaN,4.9437,840.79,334.29,0.05,0.03715
6.7362,1559.6,248.18,-34.589,248.3,34.607,43.156,0.0036463,43.156,0.0048409,7.727,1.1229,28.61,-80.6,9.7874,0.019173,-6.3635e-6,0.16294,-0.024606,13661,0,9.834,0.046379,202.85,157.97,2.8446,0.74309,41973847,0,339.12,0.53466,0.53467,0.26719,0.075689,0.19178,0.0024362,0.007009,1.6605e-4,0,0,0,0,4.5284e-7,0.031795,15.776,195.47,87.742,0.019421,NaN,4.8627,839.53,334.25,0.05,0.037313
6.7862,1571.9,246.46,-34.172,246.58,34.193,43.541,0.0037604,43.541,0.0049483,7.6696,1.2002,28.61,-80.6,9.7873,0.034622,-6.3963e-6,0.41501,-0.034026,13661,0,9.834,0.046379,202.76,157.97,2.8385,0.73806,41643350,0,333.47,0.53374,0.53374,0.2674,0.075517,0.19082,0.0044007,0.012827,-2.9307e-4,0,0,0,0,2.9788e-6,0.031575,15.776,195.47,87.728,0.047111,NaN,4.7824,838.28,334.2,0.05,0.037473
6.8362,1584.2,244.76,-33.772,244.88,33.789,43.923,0.0038917,43.923,0.0050765,7.6118,1.0522,28.61,-80.6,9.7873,0.010137,-6.1836e-6,0.69458,-0.13158,13661,0,9.834,0.046379,202.77,157.97,2.8398,0.73309,41316384,0,327.94,0.53282,0.53282,0.26761,0.075349,0.18986,0.001286,0.0037988,-2.0286e-4,0,0,0,0,8.4601e-6,0.031357,15.776,195.47,87.699,0.061575,NaN,4.7025,837.04,334.15,0.05,0.037637
